<!DOCTYPE flight_plan SYSTEM "flight_plan.dtd">

<flight_plan alt="1.5" ground_alt="0" lat0="51.990634" lon0="4.376789" max_dist_from_home="20" name="Rotorcraft Optitrack (Delft)" security_height="0.3">
  <header>
#include "autopilot.h"
</header>
  <waypoints>
    <waypoint name="HOME" x="0.0" y="0.0"/>
    <waypoint name="CLIMB" x="1.2" y="-0.6"/>
    <waypoint name="GOAL" x="2.0" y="2.0"/>
    <waypoint name="STDBY" x="-0.7" y="-0.8"/>
    <waypoint name="TD" x="0.8" y="-1.7"/>
    <waypoint lat="51.990632" lon="4.376823" name="p1"/>
    <waypoint lat="51.990624" lon="4.376779" name="p2"/>
    <waypoint lat="51.990636" lon="4.376759" name="p3"/>
    <waypoint lat="51.990651" lon="4.376805" name="p4"/>
    <waypoint lat="51.9906213" lon="4.3768628" name="FA1"/>
    <waypoint lat="51.9905874" lon="4.3767766" name="FA2"/>
    <waypoint lat="51.9906409" lon="4.3767226" name="FA3"/>
    <waypoint lat="51.9906737" lon="4.3768074" name="FA4"/>
  </waypoints>
  <sectors>
    <sector color="red" name="Flight_Area">
      <corner name="FA4"/>
      <corner name="FA3"/>
      <corner name="FA2"/>
      <corner name="FA1"/>
    </sector>
  </sectors>
<blocks>
    <block name="Wait GPS">
      <set value="1" var="kill_throttle"/>
      <while cond="!GpsFixValid()"/>
    </block>
    <block name="Geo init">
      <while cond="LessThan(NavBlockTime(), 10)"/>
      <call fun="NavSetGroundReferenceHere()"/>
    </block>
    <block name="Holding point">
      <!--set var="nav_mode" value="NAV_MODE_ROLL"/-->
      <set value="1" var="kill_throttle"/>
      <attitude roll="0" throttle="0" vmode="throttle"/>
    </block>
    <block key="t" name="Takeoff" strip_button="Takeoff (wp CLIMB)" strip_icon="takeoff.png" group="home">
      <exception cond="GetPosAlt() > GetAltRef()+25" deroute="Standby"/>
      <set value="0" var="kill_throttle"/>
      <set value="0" var="autopilot_flight_time"/>
      <go from="HOME" throttle="1.0" vmode="throttle" wp="CLIMB" pitch="15"/>
    </block>
    <block key="Ctrl+a" name="Standby" strip_button="Standby" strip_icon="home.png" group="home">
      <circle radius="nav_radius" wp="STDBY"/>
    </block>
    <block key="F8" name="Line wp 1 to wp 2">
      <go from="p1" wp="p2" hmode="route"/>
    </block>
  </blocks>
</flight_plan>
